id,nom_estab,raz_social,codigo_act,nombre_act,per_ocu,localidad,latitud,longitud
6235479,724 ASISTENCIA MEDICA INMEDIATA,CHRISTUS MUGUERZA SISTEMAS HOSPITALARIOS SA DE CV,622111,Hospitales generales del sector privado,101 a 250 personas,Monterrey                                                                                                     ,25.67211129,-100.3427791
2971414,ADMINISTRACION OFICINA,SAINAR MEDICA SC,622111,Hospitales generales del sector privado,101 a 250 personas,Monterrey                                                                                                     ,25.67501644,-100.3350395
2939356,ADULTO MAYOR,MUNICIPIO DE BUSTAMANTE NL ,624122,Centros del sector público dedicados a la atención y cuidado diurno de ancianos y discapacitados,0 a 5 personas,Bustamante                                                                                                    ,26.53465892,-100.5015831
6446652,ALFA JMG MEDICAL CENTER,ALFA JMG MEDICAL CENTER SA DE CV,622311,Hospitales del sector privado de otras especialidades médicas,0 a 5 personas,Ciudad Santa Catarina                                                                                         ,25.67885349,-100.4390855
6446792,ALFA MEDICAL CENTER,ALFA JMG MEDICAL CENTER SA DE CV,622111,Hospitales generales del sector privado,0 a 5 personas,Ciudad Benito Juárez                                                                                          ,25.64884139,-100.1002341
6806082,ALFA MEDICAL CENTER,ALFA JMG MEDICAL CENTER SA DE CV,622111,Hospitales generales del sector privado,31 a 50 personas,Monterrey                                                                                                     ,25.7173802,-100.3549239
6447312,ALFA MEDICAL CENTER,ALFA JMG MEDICAL CENTER SA DE CV,622111,Hospitales generales del sector privado,6 a 10 personas,Monterrey                                                                                                     ,25.75866396,-100.3685786
6806080,ALFA MEDICAL CENTER,ALFA JMG MEDICAL CENTER SA DE CV,622111,Hospitales generales del sector privado,0 a 5 personas,Monterrey                                                                                                     ,25.73516897,-100.3493326
8812681,ALFA MEDICAL CENTER. CONSULTAS,ALFA JMG MEDICAL CENTER SA DE CV,622111,Hospitales generales del sector privado,31 a 50 personas,Guadalupe                                                                                                     ,25.67865914,-100.2618528
9283140,ALMACEN DE HOSPITAL SAN JORGE,HOSPITAL SAN JORGE ,622311,Hospitales del sector privado de otras especialidades médicas,11 a 30 personas,Monterrey                                                                                                     ,25.6781958,-100.3243897
3024719,AR SALUD INTEGRAL,MEDICA GLOBAL ARSAIN SA DE CV,622111,Hospitales generales del sector privado,6 a 10 personas,Monterrey                                                                                                     ,25.68166013,-100.34508
2916284,ASILO ANCIANOS LUIS ELIZONDO AC,CASA DE RETIRO LUIS ELIZONDO SC,623311,Asilos y otras residencias del sector privado para el cuidado de ancianos,31 a 50 personas,Guadalupe                                                                                                     ,25.66621937,-100.2617744
7334761,ASILO CASA DE RETIRO LOS NOGALES,,623311,Asilos y otras residencias del sector privado para el cuidado de ancianos,11 a 30 personas,San Nicolás de los Garza                                                                                      ,25.74475665,-100.311112
2931185,ASILO CASA HOGAR AMOR,AMOR Y HOGAR AL ADULTO MAYOR DE NL AC,623311,Asilos y otras residencias del sector privado para el cuidado de ancianos,0 a 5 personas,Monterrey                                                                                                     ,25.69612023,-100.3501355
8498598,ASILO DE ANCIANOS,SERVICIOS HUMANOS PARA LA SALUD INTEGRAL DE LA TERCERA EDAD AC,623311,Asilos y otras residencias del sector privado para el cuidado de ancianos,6 a 10 personas,Monterrey                                                                                                     ,25.67841759,-100.344363
6725299,ASILO DE ANCIANOS AMIGO,AMIGOS CENTRO DE ATENCION INTEGRAL PARA EL ADULTO MAYOR AC,623311,Asilos y otras residencias del sector privado para el cuidado de ancianos,6 a 10 personas,Monterrey                                                                                                     ,25.68790723,-100.3684691
7541086,ASILO DE ANCIANOS JERUSAN HOGAR DE PAZ,FUNDACION CHAVEZ RAMOS AC,623311,Asilos y otras residencias del sector privado para el cuidado de ancianos,6 a 10 personas,San Nicolás de los Garza                                                                                      ,25.74189822,-100.2886171
8524442,ASILO DE ANCIANOS SAN ANTONIO,,623311,Asilos y otras residencias del sector privado para el cuidado de ancianos,0 a 5 personas,Guadalupe                                                                                                     ,25.67203299,-100.220904
6225804,ASILO LOS ANGELES,CASA DE REPOSO LOS ÁNGELES ,623311,Asilos y otras residencias del sector privado para el cuidado de ancianos,6 a 10 personas,Monterrey                                                                                                     ,25.68205309,-100.3095812
3044601,ASILO MORADA DE JESUS,,623311,Asilos y otras residencias del sector privado para el cuidado de ancianos,11 a 30 personas,Montemorelos                                                                                                  ,25.18097761,-99.85131523
6446453,ASILO RESIDENCIAL  SAN GABRIEL,RESIDENCIAL SAN GABRIEL AC,623311,Asilos y otras residencias del sector privado para el cuidado de ancianos,6 a 10 personas,Monterrey                                                                                                     ,25.63185249,-100.2772585
2974036,ASILO SAN CESAREO,,624121,Centros del sector privado dedicados a la atención y cuidado diurno de ancianos y discapacitados,0 a 5 personas,Monterrey                                                                                                     ,25.67272126,-100.3055515
7744871,ASILO VOLVERA NACER,,623311,Asilos y otras residencias del sector privado para el cuidado de ancianos,6 a 10 personas,Guadalupe                                                                                                     ,25.65909379,-100.2361319
6370189,ASILOS DE ANCIANOS MONTERREY,EJERCITO DE SALVACION AC,623311,Asilos y otras residencias del sector privado para el cuidado de ancianos,0 a 5 personas,Monterrey                                                                                                     ,25.69037565,-100.3018836
3025498,ASILOS Y OTRAS RESIDENCIAS PRIVADAS PARA EL CUIDADO DE ANCIANOS,SANTA MARIA CASA DE ATENCION PARA EL ADULTO MAYOR ,623311,Asilos y otras residencias del sector privado para el cuidado de ancianos,6 a 10 personas,Monterrey                                                                                                     ,25.67741274,-100.3413884
7318486,ASOCIACION SUPERACION POR TI,ASOCIACION SUPERACIONPORTI AC,624121,Centros del sector privado dedicados a la atención y cuidado diurno de ancianos y discapacitados,0 a 5 personas,Hidalgo                                                                                                       ,25.97448187,-100.4461828
3020291,ASOCIACION Y MORADA DEL ANCIANO DESVALIDO ABP,ASOCIACIÓN Y MORADA DEL ANCIANO DESVALIDO ABP ,623311,Asilos y otras residencias del sector privado para el cuidado de ancianos,11 a 30 personas,Cadereyta Jiménez                                                                                             ,25.57898214,-99.99325598
6367799,ATENCION MEDICA INMEDIATA AR MEDICA,SAINAR MEDICA SC,622111,Hospitales generales del sector privado,251 y más personas,Guadalupe                                                                                                     ,25.69962845,-100.2465171
8649223,AXA ASSISTANCE,AXA ASSISTANCE MEXICO SA DE CV,622111,Hospitales generales del sector privado,0 a 5 personas,Monterrey                                                                                                     ,25.68143046,-100.3177066
6446173,BANCO DE SANGRE DEL CENTRO QUIRURGICO NOGALAR,,622111,Hospitales generales del sector privado,0 a 5 personas,San Nicolás de los Garza                                                                                      ,25.71163749,-100.2790081
8804729,BIOCENTRO DE ATENCION MEDICO,,622111,Hospitales generales del sector privado,0 a 5 personas,García                                                                                                        ,25.7780006,-100.5881202
8410968,BLUE CARE,,623311,Asilos y otras residencias del sector privado para el cuidado de ancianos,0 a 5 personas,Monterrey                                                                                                     ,25.67712999,-100.3312529
9362463,BODEGA DE ISSSTELEON GOBIERNO DEL ESTADO,BODEGA DE ISSSTELEON GOBIERNO DEL ESTADO ,622111,Hospitales generales del sector privado,0 a 5 personas,Guadalupe                                                                                                     ,25.70340155,-100.2127396
7350095,C INTEGRAL MEDICO ESTRADA,,622111,Hospitales generales del sector privado,0 a 5 personas,Pesquería                                                                                                     ,25.78610364,-100.0515038
8712949,C M C CENTRO MEDICODE ESPECIALIDADES,CENTRO MEDICO QUIRURGICO NOGALAR SA DE CV,622111,Hospitales generales del sector privado,11 a 30 personas,Ciudad Apodaca                                                                                                ,25.78476161,-100.2421411
8695963,CARDIOLINK,CARDILINK SC,622311,Hospitales del sector privado de otras especialidades médicas,6 a 10 personas,Monterrey                                                                                                     ,25.67331102,-100.3464972
8391747,CARDIOLOGIA INTERVENCIONISTA,,622311,Hospitales del sector privado de otras especialidades médicas,0 a 5 personas,Monterrey                                                                                                     ,25.68448666,-100.3561605
8436971,CASA  DEL ADULTO MAYOR,PRESIDENCIA MUNICIPAL ,623312,Asilos y otras residencias del sector público para el cuidado de ancianos,0 a 5 personas,General Zaragoza                                                                                              ,23.97323634,-99.77278974
8634863,CASA ANDARES BIENESTAR PARA EL ADULTO MAYOR,CASA ANDARES SA DE CV,623311,Asilos y otras residencias del sector privado para el cuidado de ancianos,31 a 50 personas,Ciudad Santa Catarina                                                                                         ,25.67066946,-100.4245626
3019801,CASA CLUB,MUNICIPIO DE SAN PEDRO GARZA GARCIA ,624122,Centros del sector público dedicados a la atención y cuidado diurno de ancianos y discapacitados,6 a 10 personas,San Pedro Garza García                                                                                        ,25.66474142,-100.4106503
2957255,CASA CLUB  DIF,GOBIERNO MUNICIPAL ,624122,Centros del sector público dedicados a la atención y cuidado diurno de ancianos y discapacitados,0 a 5 personas,Ciudad Santa Catarina                                                                                         ,25.69004755,-100.420766
3014688,CASA CLUB DE LA TERCERA EDAD JOSE FERNANDEZ GALVAN,GOBIERNO MUNICIPAL DE CIENEGA DE FLORES ,624122,Centros del sector público dedicados a la atención y cuidado diurno de ancianos y discapacitados,0 a 5 personas,Ciénega de Flores                                                                                             ,25.95749493,-100.1644928
3044776,CASA CLUB DEL ADULTO MAYOR,CASA CLUB DEL ADULTO MAYOR APODACA ,624122,Centros del sector público dedicados a la atención y cuidado diurno de ancianos y discapacitados,11 a 30 personas,Ciudad Apodaca                                                                                                ,25.78338109,-100.1835105
2999514,CASA CLUB DEL ADULTO MAYOR,DIF MUNICIPAL ,624122,Centros del sector público dedicados a la atención y cuidado diurno de ancianos y discapacitados,0 a 5 personas,Ciudad de Allende                                                                                             ,25.26124156,-99.99709647
2961573,CASA CLUB DEL ADULTO MAYOR,DIF MONTERREY ,624122,Centros del sector público dedicados a la atención y cuidado diurno de ancianos y discapacitados,0 a 5 personas,Monterrey                                                                                                     ,25.74026449,-100.3610819
7680038,CASA CLUB DEL ADULTO MAYOR,CASA CLUB DEL ADULTO MAYOR ,623312,Asilos y otras residencias del sector público para el cuidado de ancianos,0 a 5 personas,Guadalupe                                                                                                     ,25.72646573,-100.1875554
7656934,CASA CLUB DEL ADULTO MAYOR CAMINOS DE VIDA,DIF MUNICIPAL GUADALUPE ,624122,Centros del sector público dedicados a la atención y cuidado diurno de ancianos y discapacitados,11 a 30 personas,Guadalupe                                                                                                     ,25.67017146,-100.2226673
2928514,CASA CLUB DEL ADULTO MAYOR EXPERIENCIA EN MOVIMIENTO,GOBIERNO MUNICIPAL DE ESCOBEDO ,624122,Centros del sector público dedicados a la atención y cuidado diurno de ancianos y discapacitados,0 a 5 personas,Ciudad General Escobedo                                                                                       ,25.79846396,-100.3044595
2924253,CASA CLUB DEL ADULTO MAYOR HIDALGO NL,GOBIERNO MUNICIPAL ,624122,Centros del sector público dedicados a la atención y cuidado diurno de ancianos y discapacitados,0 a 5 personas,Hidalgo                                                                                                       ,25.97354236,-100.4543487
3018579,CASA CLUB DEL ADULTO MAYOR LOS ALTOS,DIF MONTERREY ,624122,Centros del sector público dedicados a la atención y cuidado diurno de ancianos y discapacitados,11 a 30 personas,Monterrey                                                                                                     ,25.71400483,-100.368905
2948621,CASA CLUB DEL ADULTO MAYOR PINOS,MUNICIPIO DE APODACA DIF ,624122,Centros del sector público dedicados a la atención y cuidado diurno de ancianos y discapacitados,6 a 10 personas,Ciudad Apodaca                                                                                                ,25.77248583,-100.2504625
2940468,CASA CLUB DEL ANCIANO,GOBIERNO ,624122,Centros del sector público dedicados a la atención y cuidado diurno de ancianos y discapacitados,0 a 5 personas,Salinas Victoria                                                                                              ,25.96116711,-100.2922821
8261130,CASA CLUB TESOROS DE VIDA,GOBIERNO DEL MUNICIPIO DE GUADALUPE ,623312,Asilos y otras residencias del sector público para el cuidado de ancianos,0 a 5 personas,Guadalupe                                                                                                     ,25.66969747,-100.1465608
3024123,CASA DE DESCANSO SAN JOSE,CASA DE DESCANSO SAN JOSE AC,623311,Asilos y otras residencias del sector privado para el cuidado de ancianos,11 a 30 personas,San Pedro Garza García                                                                                        ,25.65631497,-100.362841
8466086,CASA DE DIA DEL ADULTO MAYOR,PARTIDO REVOLUCIONARIO INSTITUCIONAL ,624122,Centros del sector público dedicados a la atención y cuidado diurno de ancianos y discapacitados,0 a 5 personas,Monterrey                                                                                                     ,25.74464705,-100.3636564
7636185,CASA DE DIA DEL ADULTO MAYOR,PRICIDENCIA MUNICIPAL DE CHINA ,624122,Centros del sector público dedicados a la atención y cuidado diurno de ancianos y discapacitados,11 a 30 personas,China                                                                                                         ,25.70821372,-99.25345144
3054776,CASA DE LA TERCERA EDAD,MUNICIPIO DEL CARMEN ,623312,Asilos y otras residencias del sector público para el cuidado de ancianos,0 a 5 personas,Carmen                                                                                                        ,25.93227465,-100.3621281
2940103,CASA DE LOS ABUELOS,GOBIERNO ,624122,Centros del sector público dedicados a la atención y cuidado diurno de ancianos y discapacitados,6 a 10 personas,Agualeguas                                                                                                    ,26.31537624,-99.54044094
3010605,CASA DE REPOPSO DE LOS ANGELES,MUNICIPIO DE BUSTAMANTE ,624122,Centros del sector público dedicados a la atención y cuidado diurno de ancianos y discapacitados,0 a 5 personas,Bustamante                                                                                                    ,26.53585515,-100.5022439
3012072,CASA DE REPOSO,DIF ,624122,Centros del sector público dedicados a la atención y cuidado diurno de ancianos y discapacitados,11 a 30 personas,Ciudad Sabinas Hidalgo                                                                                        ,26.49636264,-100.1751028
2940214,CASA DE REPOSO JUAN PABLO SEGUNDO,PRESIDENCIA MUNICIPAL DE MELCHOR OCAMPO NUEVO LEON ,624122,Centros del sector público dedicados a la atención y cuidado diurno de ancianos y discapacitados,11 a 30 personas,Melchor Ocampo                                                                                                ,26.05292155,-99.55256141
7563680,CASA DE REPOSO LOS OLIVOS OBISPADO,CENTRO DE DESARROLLO INTEGRAL PARA EL ADULTO MAYOR AC,623311,Asilos y otras residencias del sector privado para el cuidado de ancianos,6 a 10 personas,Monterrey                                                                                                     ,25.67818422,-100.3404082
2915536,CASA DE REPOSO MARIA DE JESUS,CASA DE REPOSO MARIA DE JESUS AC,623311,Asilos y otras residencias del sector privado para el cuidado de ancianos,6 a 10 personas,Guadalupe                                                                                                     ,25.67343773,-100.2597896
2922871,CASA DE REPOSO MARIA ESPERANZA NUESTRA,CASA DE REPOSO MARIA ESPERANZA NUESTRA AC,624121,Centros del sector privado dedicados a la atención y cuidado diurno de ancianos y discapacitados,11 a 30 personas,Monterrey                                                                                                     ,25.69130233,-100.3457365
8411074,CASA DE REPOSO MINERVA,ESTANCIA MINERVA AC,623311,Asilos y otras residencias del sector privado para el cuidado de ancianos,6 a 10 personas,Monterrey                                                                                                     ,25.64884,-100.2994258
8626273,CASA DE REPOSO NUESTRA SEÑORA DE FATIMA,,623311,Asilos y otras residencias del sector privado para el cuidado de ancianos,6 a 10 personas,Monterrey                                                                                                     ,25.6813518,-100.3426109
8633564,CASA DE REPOSO PROVIDENCIA,CASA DE REPOSO PROVIDENCIA ,623311,Asilos y otras residencias del sector privado para el cuidado de ancianos,11 a 30 personas,Monterrey                                                                                                     ,25.671895,-100.3671452
3037466,CASA DE REPOSO RODRIGO GOMEZ A BP,,624121,Centros del sector privado dedicados a la atención y cuidado diurno de ancianos y discapacitados,11 a 30 personas,Linares                                                                                                       ,24.87010993,-99.57289515
6367812,CASA DE REPOSO SAGRADO CORAZON DE JESUS,ASISTENCIA Y DESARROLLO SOCIAL AC,623311,Asilos y otras residencias del sector privado para el cuidado de ancianos,31 a 50 personas,Monterrey                                                                                                     ,25.71839538,-100.3528343
3017305,CASA DE REPOSO SAN GREGORIO MAGNO DE CERRALVO A.B.P,PRESIDENCIA DEL MUNICIPIO DE CERRALVO NUEVO LEON ,623312,Asilos y otras residencias del sector público para el cuidado de ancianos,0 a 5 personas,Ciudad Cerralvo                                                                                               ,26.08363936,-99.60238195
3039545,CASA DE REPOSO VIRGEN DE GUADALUPE,ASISTENCIA Y DESARROLLO SOCIAL AC,623311,Asilos y otras residencias del sector privado para el cuidado de ancianos,31 a 50 personas,Monterrey                                                                                                     ,25.64611763,-100.2980533
7637422,CASA DE REPOSO YGUARDERIA DEL ABUELO,,623311,Asilos y otras residencias del sector privado para el cuidado de ancianos,0 a 5 personas,Ciudad Benito Juárez                                                                                          ,25.64869965,-100.0924146
3022184,CASA DE RETIRO TERESA DE CALCUTA,CASA DE RETIRO TERESA DE CALCUTA SC,623311,Asilos y otras residencias del sector privado para el cuidado de ancianos,31 a 50 personas,San Nicolás de los Garza                                                                                      ,25.75211951,-100.2894664
8498284,CASA DEL ABUELO,MUNICIPIO DE SABINAS HIDALGO NUEVO LEON ,624122,Centros del sector público dedicados a la atención y cuidado diurno de ancianos y discapacitados,0 a 5 personas,Ciudad Sabinas Hidalgo                                                                                        ,26.49978996,-100.1805576
2940963,CASA DEL ADULTO MAYOR,MUNICIPIO DE MINA NUEVO LEÓN ,624122,Centros del sector público dedicados a la atención y cuidado diurno de ancianos y discapacitados,11 a 30 personas,Mina                                                                                                          ,26.00019979,-100.5239699
9027055,CASA DEL ADULTO MAYOR,MUNICIPIO DE MARIN ,623312,Asilos y otras residencias del sector público para el cuidado de ancianos,0 a 5 personas,Marín                                                                                                         ,25.88227174,-100.034253
8712713,CASA DEL ADULTO MAYOR,MUNICIPIO DE PESQUERIA NUEVO LEON ,624122,Centros del sector público dedicados a la atención y cuidado diurno de ancianos y discapacitados,11 a 30 personas,Pesquería                                                                                                     ,25.78438608,-100.0589816
8778211,CASA DEL ADULTO MAYOR,COMEDOR DEL ADULTO MAYOR DEL CIVICO ,624122,Centros del sector público dedicados a la atención y cuidado diurno de ancianos y discapacitados,6 a 10 personas,Montemorelos                                                                                                  ,25.19063181,-99.80475402
2941545,CASA DEL ADULTO MAYOR,PRESIDENCIA MUNICIPAL LOS ALDAMAS NL ,623312,Asilos y otras residencias del sector público para el cuidado de ancianos,6 a 10 personas,Los Aldamas                                                                                                   ,26.05554918,-99.19559537
8971438,CASA DEL ADULTO MAYOR CONSUELO LOZANO DE BUENTELLO,MUNICIPIO DE VILLALDAMA ,623312,Asilos y otras residencias del sector público para el cuidado de ancianos,0 a 5 personas,Ciudad de Villaldama                                                                                          ,26.49816988,-100.4268438
3016761,CASA DEL ANCIANO,MUNICIPAL ,623312,Asilos y otras residencias del sector público para el cuidado de ancianos,0 a 5 personas,Higueras                                                                                                      ,25.9580844,-100.0152462
3015290,CASA DEL ANCIANO,MUNICIPIO DE GENERAL ZUAZUA ,624122,Centros del sector público dedicados a la atención y cuidado diurno de ancianos y discapacitados,0 a 5 personas,General Zuazua                                                                                                ,25.8953234,-100.1097578
8753645,CASA GERIATRICA VIRGEN DE COVADONGA,,623311,Asilos y otras residencias del sector privado para el cuidado de ancianos,6 a 10 personas,Monterrey                                                                                                     ,25.70521176,-100.3452965
3040105,CASA HOGAR MARIA ESPERANZA NUESTRA,ASILO CASA HOGAR MARIA ESPERANZA NUESTRA AC,623311,Asilos y otras residencias del sector privado para el cuidado de ancianos,6 a 10 personas,Monterrey                                                                                                     ,25.64859224,-100.2888175
3024697,CASA HOGAR MARIA MAGDALENA,SERVICIOS PROFECIONALES DE ASISTENCIA GERIATRICA Y GERONTOLOGICA SA DE CV,623311,Asilos y otras residencias del sector privado para el cuidado de ancianos,0 a 5 personas,Monterrey                                                                                                     ,25.68263598,-100.341659
2930439,CASA HOGAR MI ESPERANZA CARY,,623311,Asilos y otras residencias del sector privado para el cuidado de ancianos,11 a 30 personas,Monterrey                                                                                                     ,25.69765631,-100.3390161
2926481,CASA HOGAR NUEVA ESPERANZA,GOBIERNO DE MONTERREY ,623312,Asilos y otras residencias del sector público para el cuidado de ancianos,11 a 30 personas,Monterrey                                                                                                     ,25.70320844,-100.3309486
8795300,CASA HOGAR PARA ABUELOS EMMANUEL,CASA HOGAR PARA ABUELOS EMMANUEL AC,623311,Asilos y otras residencias del sector privado para el cuidado de ancianos,6 a 10 personas,Guadalupe                                                                                                     ,25.65426268,-100.2069875
2964513,CASA MILAGROS DE AMOR,,623311,Asilos y otras residencias del sector privado para el cuidado de ancianos,6 a 10 personas,Monterrey                                                                                                     ,25.69954047,-100.3593142
6699575,CASA SHONSTATT PRESAS AC,CASA SHONSTATT PRESAS AC,623311,Asilos y otras residencias del sector privado para el cuidado de ancianos,0 a 5 personas,San Pedro Garza García                                                                                        ,25.65945454,-100.3589235
2944121,CASTILLO DE MABELY,,623311,Asilos y otras residencias del sector privado para el cuidado de ancianos,0 a 5 personas,Ciudad Apodaca                                                                                                ,25.73661252,-100.1630017
8732036,CEMPE CENTRO MEDICO PEDREGAL,CEMPE CENTRO MEDICO PEDREGAL ,622111,Hospitales generales del sector privado,0 a 5 personas,Ciudad General Escobedo                                                                                       ,25.8075889,-100.3424027
2995916,CENRTO DE SALUD,,622112,Hospitales generales del sector público,0 a 5 personas,Monterrey                                                                                                     ,25.62079977,-100.2683502
8753156,CENTRO DE ACTIVACION PARA EL ADULTO MAYOR 65 UP,65 UP SC DE RL DE CV,623311,Asilos y otras residencias del sector privado para el cuidado de ancianos,0 a 5 personas,Monterrey                                                                                                     ,25.69595826,-100.3408955
3027115,CENTRO DE ALIANZA MÉDICA LEONES,CENTRO DE ALIANZA MEDICA LEONES SC,622111,Hospitales generales del sector privado,31 a 50 personas,Monterrey                                                                                                     ,25.69981641,-100.3629494
2915055,CENTRO DE ATENCION A PERSONAS CON DISCAPACIDAD,MUNICIPIO DE GUADALUPE ,624122,Centros del sector público dedicados a la atención y cuidado diurno de ancianos y discapacitados,6 a 10 personas,Guadalupe                                                                                                     ,25.67042339,-100.271353
6445221,CENTRO DE ATENCIÓN MÉDICA HUINALA,CHRISTUS MUGUERZA SISTEMAS HOSPITALARIOS SA DE CV,622111,Hospitales generales del sector privado,0 a 5 personas,Ciudad Apodaca                                                                                                ,25.74778305,-100.2010462
2952139,CENTRO DE ATENCION PRIMARIOS DE ADICCIONES,EL GOBIERNO DEL ESTADO ,622112,Hospitales generales del sector público,6 a 10 personas,Ciudad General Escobedo                                                                                       ,25.80163529,-100.3117059
8754472,CENTRO DE CONVIVENCIA DEL ADULTO DE LA 3A EDAD,CLUB DE JUBILALDOS Y PENSIIONADOS DE LAS INDUSTRIAS DEL VIDRIO ,623312,Asilos y otras residencias del sector público para el cuidado de ancianos,0 a 5 personas,San Nicolás de los Garza                                                                                      ,25.71016635,-100.2556797
8695566,CENTRO DE DERMATOLOGIA Y CIRUGIA PLASTICA CDERMA,PIÑEYRO Y REYES MEDICOS ESPECIALIZADOS SC,622111,Hospitales generales del sector privado,0 a 5 personas,San Pedro Garza García                                                                                        ,25.66064357,-100.3640736
2941582,CENTRO DE DIA DEL ADULTO MAYOR,H AYUNTAMIENTO MUNICIPAL DE GENERAL BRAVO N L ,623312,Asilos y otras residencias del sector público para el cuidado de ancianos,6 a 10 personas,General Bravo                                                                                                 ,25.79230112,-99.18385452
2937971,CENTRO DE EDUCACION ESPECIAL ABBA,CENTRO DE EDUCACIÓN ESPECIAL ABBA AC,624121,Centros del sector privado dedicados a la atención y cuidado diurno de ancianos y discapacitados,0 a 5 personas,Guadalupe                                                                                                     ,25.67654237,-100.2611095
3042312,CENTRO DE ESPECIALIDADES LAS AMERICAS SA DE CV,CENTRO DE ESPECIALIDADES LAS AMERICAS SA DE CV,622111,Hospitales generales del sector privado,0 a 5 personas,Guadalupe                                                                                                     ,25.65674844,-100.2621615
2971209,CENTRO DE ESPECIALIDADES MEDICAS Y CIRUGIA AMBULATORIA,CENTRO DE ESPECIALIDADES MEDICAS Y CIRUGIA AMBULATORIA SA DE CV,622111,Hospitales generales del sector privado,31 a 50 personas,Monterrey                                                                                                     ,25.67591244,-100.3508607
3025413,CENTRO DE ESTETICA CORPORAL DE MONTERREY CLINICA DE CIRUGIA PLASTICA,,622311,Hospitales del sector privado de otras especialidades médicas,0 a 5 personas,Monterrey                                                                                                     ,25.67449986,-100.3506432
8751368,CENTRO DE EVOLUCION DE OSTEOPOROSIS,CENTRO DE EVALUACION DE OSTEOPOROSIS SA DE CV,622111,Hospitales generales del sector privado,0 a 5 personas,Monterrey                                                                                                     ,25.67229607,-100.347119
9334813,CENTRO DE GINECOLOGIA Y OBSTETRICIA DE MONTERREY,CENTRO DE GINECOLOGIA Y OBSTETRICIA DE MONTERREY SA DE CV,622311,Hospitales del sector privado de otras especialidades médicas,0 a 5 personas,Monterrey                                                                                                     ,25.67055309,-100.3410023
8997081,CENTRO DE GINECOLOGIA Y OBSTRECIA,,622311,Hospitales del sector privado de otras especialidades médicas,0 a 5 personas,Monterrey                                                                                                     ,25.66939253,-100.3409955
2918906,CENTRO DE REHABILITACION DE GERIATRIA ASILO,,623311,Asilos y otras residencias del sector privado para el cuidado de ancianos,0 a 5 personas,Guadalupe                                                                                                     ,25.66517148,-100.2122252
6446172,CENTRO DE REHABILITACION DEL CENTRO QUIRURGICO NOGALAR,,622111,Hospitales generales del sector privado,0 a 5 personas,San Nicolás de los Garza                                                                                      ,25.71132643,-100.2785719
9030274,CENTRO DE SALUD ENCINOS,SERVICIOS DE SALUD DE NUEVO LEON ,622112,Hospitales generales del sector público,6 a 10 personas,Guadalupe                                                                                                     ,25.68641466,-100.1986016
9346274,CENTRO DE SALUD URBANO EL OBISPO,CENTRO DE SALUD URBANO ELOBISPO S DE SS ,622111,Hospitales generales del sector privado,0 a 5 personas,San Pedro Garza García                                                                                        ,25.67890906,-100.401586
3050106,CENTRO DE SALUD URBANO PLUTARCO ELIAS CALLES,SECRETARIA DE SALUD DE NUEVO LEON ,622112,Hospitales generales del sector público,51 a 100 personas,Monterrey                                                                                                     ,25.75104172,-100.3882746
8391139,CENTRO DE VIDA PARA ADULTO MAYOR,CENTRO DE VIDA PARA ADULTO MAYOR AC,623311,Asilos y otras residencias del sector privado para el cuidado de ancianos,11 a 30 personas,Monterrey                                                                                                     ,25.69614955,-100.3407659
8778218,CENTRO DIAGNOSTICO DEL CUARTO ANGEL,CENTRO DIAGNOSTICO DEL CUARTO ANGEL SA DE CV,622111,Hospitales generales del sector privado,0 a 5 personas,Montemorelos                                                                                                  ,25.19131921,-99.82872205
2935885,CENTRO DIF CEDEF,GOBIERNO MUNICIPAL ,622112,Hospitales generales del sector público,0 a 5 personas,Guadalupe                                                                                                     ,25.67875103,-100.2484076
8830778,CENTRO GERIATRICO SANTA CECILIA,,623311,Asilos y otras residencias del sector privado para el cuidado de ancianos,0 a 5 personas,Monterrey                                                                                                     ,25.71223111,-100.3761134
8279390,CENTRO MEDICO,,622111,Hospitales generales del sector privado,0 a 5 personas,Guadalupe                                                                                                     ,25.71062971,-100.1988055
6445060,CENTRO MEDICO ALFA INFANTIL,ALFA JMG MEDICAL CENTER SA DE CV,622111,Hospitales generales del sector privado,51 a 100 personas,Guadalupe                                                                                                     ,25.67856727,-100.2625731
8746106,CENTRO MEDICO ALMA MATER,,622111,Hospitales generales del sector privado,0 a 5 personas,Guadalupe                                                                                                     ,25.65252463,-100.2026053
8667118,CENTRO MEDICO AMAYA,,622111,Hospitales generales del sector privado,0 a 5 personas,Monterrey                                                                                                     ,25.73288487,-100.3842023
9113767,CENTRO MEDICO ARAMBERRI,,622111,Hospitales generales del sector privado,0 a 5 personas,Aramberri                                                                                                     ,24.10228458,-99.81470533
8778510,CENTRO MEDICO AVE A.C.,CENTRO MEDICO AVE AC,622111,Hospitales generales del sector privado,0 a 5 personas,Monterrey                                                                                                     ,25.66932844,-100.3533043
8775144,CENTRO MEDICO CABEZADA MEDICA CARE,,622111,Hospitales generales del sector privado,0 a 5 personas,Monterrey                                                                                                     ,25.78270275,-100.4033675
8997308,CENTRO MEDICO CIME,,622111,Hospitales generales del sector privado,0 a 5 personas,Monterrey                                                                                                     ,25.67155262,-100.3357945
2936613,CENTRO MEDICO COMUNITARIO,CENTRO DE SALUD MUNICIPAL TIERRA Y LIBERTAD ,622112,Hospitales generales del sector público,0 a 5 personas,Monterrey                                                                                                     ,25.73941515,-100.3389507
7636647,CENTRO MEDICO DE BARI,,622111,Hospitales generales del sector privado,0 a 5 personas,Monterrey                                                                                                     ,25.74148307,-100.3425317
8830300,CENTRO MEDICO DEL DOLOR,CENTRO MEDICO DEL DOLOR SA DE CV,622111,Hospitales generales del sector privado,0 a 5 personas,Monterrey                                                                                                     ,25.72044989,-100.3663833
8684362,CENTRO MEDICO DONBRAN,,622111,Hospitales generales del sector privado,6 a 10 personas,Ciudad Benito Juárez                                                                                          ,25.66362077,-100.1407407
8732403,CENTRO MEDICO EL CERRITO,,622111,Hospitales generales del sector privado,6 a 10 personas,Ciudad General Escobedo                                                                                       ,25.84612414,-100.3892961
7541354,CENTRO MEDICO EMMANUEL,,622111,Hospitales generales del sector privado,0 a 5 personas,San Nicolás de los Garza                                                                                      ,25.76095323,-100.2846025
6368524,CENTRO MÉDICO EMPRESARIAL DE MONTEREY,CENTRO MEDICO EMPRESARIAL MONTERREY SA DE CV,622111,Hospitales generales del sector privado,101 a 250 personas,Ciudad Apodaca                                                                                                ,25.77745278,-100.1858582
7526663,CENTRO MEDICO FAMILIAR,,622111,Hospitales generales del sector privado,6 a 10 personas,Ciudad Apodaca                                                                                                ,25.7757399,-100.1878123
7703591,CENTRO MEDICO GAMP,,622111,Hospitales generales del sector privado,11 a 30 personas,Monterrey                                                                                                     ,25.75418797,-100.3657988
6224813,CENTRO MEDICO HIDALGO,BIENESTAR INTEGRAL ONCOLOGICO ,622111,Hospitales generales del sector privado,6 a 10 personas,Monterrey                                                                                                     ,25.67229607,-100.347119
8695551,CENTRO MEDICO HIDALGO,,622111,Hospitales generales del sector privado,0 a 5 personas,Monterrey                                                                                                     ,25.67229607,-100.347119
8971745,CENTRO MEDICO INMEDICA,,622111,Hospitales generales del sector privado,0 a 5 personas,Ciudad General Escobedo                                                                                       ,25.77378212,-100.3274439
8413016,CENTRO MEDICO INMEDIK,CENTRO MEDICO SANTA MARTHA SA DE CV,622111,Hospitales generales del sector privado,11 a 30 personas,Monterrey                                                                                                     ,25.74411747,-100.4202372
7527325,CENTRO MEDICO LA CIENEGUITA,,622111,Hospitales generales del sector privado,0 a 5 personas,Ciudad Apodaca                                                                                                ,25.7821859,-100.2586511
2969802,CENTRO MEDICO LA SALLE,LA SALLE SALUD SA DE CV,622111,Hospitales generales del sector privado,31 a 50 personas,Monterrey                                                                                                     ,25.67931572,-100.3445693
6366673,CENTRO MEDICO LOS ANGELES HOSPITAL,CENTRO MEDICO LOS ANGELES SA DE CV,622111,Hospitales generales del sector privado,6 a 10 personas,Monterrey                                                                                                     ,25.69927314,-100.3381531
8436720,CENTRO MEDICO MARANATHA,CENTRO MEDICO MARANATHA SA DE CV,622111,Hospitales generales del sector privado,11 a 30 personas,Ciudad General Escobedo                                                                                       ,25.84318098,-100.3677038
2947876,CENTRO MEDICO METROPLEX,SERVICIOS HOSPITALARIOS CMM SA DE CV,622111,Hospitales generales del sector privado,11 a 30 personas,Ciudad Apodaca                                                                                                ,25.79192817,-100.2489031
8713054,CENTRO MEDICO METROPLEX,SERVICIOS  HOSPITALARIOS CMM SA DE CV,622111,Hospitales generales del sector privado,0 a 5 personas,Ciudad Apodaca                                                                                                ,25.79182,-100.2489281
3004145,CENTRO MEDICO MILER,CENTRO MÉDICO MILLER SC,622111,Hospitales generales del sector privado,11 a 30 personas,Monterrey                                                                                                     ,25.74387245,-100.3571312
8303973,CENTRO MEDICO MIRASUR,,622111,Hospitales generales del sector privado,6 a 10 personas,Ciudad General Escobedo                                                                                       ,25.84530964,-100.3906309
3009094,CENTRO MEDICO MITRAS,CENTRO MEDICO MITRAS SA DE CV,622311,Hospitales del sector privado de otras especialidades médicas,6 a 10 personas,Monterrey                                                                                                     ,25.71364688,-100.3475519
3016698,CENTRO MÉDICO MUNICIPAL,GOBIERNO ,622112,Hospitales generales del sector público,0 a 5 personas,Marín                                                                                                         ,25.87735207,-100.0330164
7787185,CENTRO MEDICO ONE,,622111,Hospitales generales del sector privado,0 a 5 personas,Monterrey                                                                                                     ,25.73777868,-100.325894
2949277,CENTRO MEDICO PRADERAS,,622111,Hospitales generales del sector privado,0 a 5 personas,Praderas de San Francisco                                                                                     ,25.81919371,-100.4021953
2986169,CENTRO MEDICO QUIRURJICO SANTA ROSA,CENTRO MEDICO QUIRURGICO SANTA ROSA SC,622111,Hospitales generales del sector privado,6 a 10 personas,Guadalupe                                                                                                     ,25.65405895,-100.1955001
2953563,CENTRO MÉDICO ROA,CENTRO MEDICO ROA SA DE CV,622111,Hospitales generales del sector privado,11 a 30 personas,Ciudad General Escobedo                                                                                       ,25.76826595,-100.2891902
7309120,CENTRO MEDICO SALUD FAMILIAR,,622111,Hospitales generales del sector privado,6 a 10 personas,Ciudad General Escobedo                                                                                       ,25.84544581,-100.3675499
7350500,CENTRO MEDICO SALUD MUNDIAL,,622111,Hospitales generales del sector privado,0 a 5 personas,Colinas del Aeropuerto                                                                                        ,25.82293458,-100.1109579
7786543,CENTRO MEDICO SAN BENITO,,622111,Hospitales generales del sector privado,0 a 5 personas,Monterrey                                                                                                     ,25.75332802,-100.3932615
2921342,CENTRO MEDICO SAN BLAS,CENTRO DE ESPECIALIDADES MEDICAS SY S SA DE CV,622111,Hospitales generales del sector privado,6 a 10 personas,Monterrey                                                                                                     ,25.67978774,-100.314563
8971783,CENTRO MEDICO SAN JUDAS TADEO,CENTRO MEDICO SAN JUDAS TADEO ,622111,Hospitales generales del sector privado,0 a 5 personas,García                                                                                                        ,25.82450098,-100.5897901
3045309,CENTRO MEDICO SAN MATEO,CENTRO MEDICO SAN MATEO SA DE CV,622111,Hospitales generales del sector privado,11 a 30 personas,Montemorelos                                                                                                  ,25.18604946,-99.83720396
6235065,CENTRO MÉDICO SAN MIGUEL,SALUD INTEGRAL EN MEDICINA LABORAL SA DE CV,622111,Hospitales generales del sector privado,11 a 30 personas,Guadalupe                                                                                                     ,25.71792098,-100.1907366
8732707,CENTRO MEDICO SANTA AMALIA,,622111,Hospitales generales del sector privado,0 a 5 personas,Parque Industrial Ciudad Mitras                                                                               ,25.79887031,-100.4334501
8269401,CENTRO MEDICO SANTOS,,622111,Hospitales generales del sector privado,0 a 5 personas,Ciudad Sabinas Hidalgo                                                                                        ,26.5047676,-100.1771072
7962007,CENTRO MEDICO SOLAIMAN,,622111,Hospitales generales del sector privado,0 a 5 personas,Ciudad Benito Juárez                                                                                          ,25.64634813,-100.1464568
7526998,CENTRO MEDICO Y DE DIAGNOSTICO,,622111,Hospitales generales del sector privado,6 a 10 personas,Ciudad Apodaca                                                                                                ,25.78027033,-100.1905531
8996956,CENTRO MEDICO ZAMBRANO HELLION,FUNDACION SANTOS Y DE LA GARZA EVIA Y BP ,622111,Hospitales generales del sector privado,0 a 5 personas,San Pedro Garza García                                                                                        ,25.64793827,-100.3339779
7351573,CENTRO MEDIDO Y LABORATORIO JAMA,,622111,Hospitales generales del sector privado,6 a 10 personas,Ciudad Apodaca                                                                                                ,25.78018889,-100.2388416
8732606,CENTRO MILLER MEDICO,CENTRO MEDICO MILLER SC,622111,Hospitales generales del sector privado,11 a 30 personas,Parque Industrial Ciudad Mitras                                                                               ,25.78322856,-100.4662329
6216735,CENTRO OFTALMOLOGICO KRUPSKARJA SC VISION CENTER VALLE,CENTRO OFTALMOLÓGICO KRUPSKARJA SC,622111,Hospitales generales del sector privado,11 a 30 personas,San Pedro Garza García                                                                                        ,25.66163676,-100.3640074
3010180,CENTRO QUIRURGICO DR ISIDRO GONZALEZ JUAREZ,CENTRO QUIRURGICO DR ISIDRO GONZALEZ JUAREZ ,622111,Hospitales generales del sector privado,11 a 30 personas,Monterrey                                                                                                     ,25.71082906,-100.3443522
6368340,CENTRO QUIRÚRGICO NOGALAR,CENTRO QUIRÚRGICO NOGALAR SA DE CV,622111,Hospitales generales del sector privado,101 a 250 personas,San Nicolás de los Garza                                                                                      ,25.71199685,-100.2789314
2998306,CENTRO REGIONAL DE ESPECIALIDADES MEDICAS LA SECCION 50 SNTE,SINDICATO DE TRABAJADORES DE LA EDUCACIÓN DE LA SECCIÓN 50 SNTE ,622312,Hospitales del sector público de otras especialidades médicas,11 a 30 personas,Cadereyta Jiménez                                                                                             ,25.56642359,-100.0220179
6236110,CHRISTUS MUGERZA HOSPITAL ALTA ESPECIALIDAD,CHRISTUS MUGUERZA SISTEMAS HOSPITALARIOS SA DE CV,622111,Hospitales generales del sector privado,251 y más personas,Monterrey                                                                                                     ,25.5888148,-100.2586043
9307452,CHRISTUS MUGUERZA,CHRISTUS MUGUERZA ,622111,Hospitales generales del sector privado,11 a 30 personas,Monterrey                                                                                                     ,25.6741587,-100.34728
6235117,CHRISTUS MUGUERZA HOSPITAL CONCHITA,CHRISTUS MUGUERZA SISTEMAS HOSPITALARIOS SA DE CV,622111,Hospitales generales del sector privado,251 y más personas,Monterrey                                                                                                     ,25.67482942,-100.33774
9030389,CHRISTUS MUGUERZA HOSPITAL SAN NICOLAS,CHRISTUS MUGUERZA SAN NICOLAS SA DE CV,622111,Hospitales generales del sector privado,31 a 50 personas,San Nicolás de los Garza                                                                                      ,25.71892149,-100.2423509
8391406,CIRUJANO PEDIATRA- UROLOGO,,622311,Hospitales del sector privado de otras especialidades médicas,0 a 5 personas,Monterrey                                                                                                     ,25.68448666,-100.3561605
2993790,CLINICA 2 DEL IMSS,IMSS ,622112,Hospitales generales del sector público,251 y más personas,Monterrey                                                                                                     ,25.67007304,-100.2955513
2919997,CLINICA 24 DEL IMSS,INSTITUTO MEXICANO DEL SEGURO SOCIAL ,622112,Hospitales generales del sector público,51 a 100 personas,García                                                                                                        ,25.80707965,-100.5877624
3005064,CLINICA 35,IMSS ,622112,Hospitales generales del sector público,251 y más personas,Monterrey                                                                                                     ,25.73236725,-100.3458177
3042275,CLINICA 36 DEL INSTITUTO MEXICANO DEL SEGURO SOCIAL,DELEGACIÓN REGIONAL GOBIERNO FEDERAL ,622112,Hospitales generales del sector público,31 a 50 personas,Monterrey                                                                                                     ,25.63118188,-100.300422
3043162,CLINICA 66 PUEBLO NUEVO,CLÍNICA IMSS ,622112,Hospitales generales del sector público,101 a 250 personas,Ciudad Apodaca                                                                                                ,25.75716113,-100.1597844
2925632,CLINICA 9 DEL INSTITUTO MEXICANO DEL SEGURO SOCIAL,INSTITUTO MEXICANO DEL SEGURO SOCIAL ,622112,Hospitales generales del sector público,11 a 30 personas,Salinas Victoria                                                                                              ,25.95912887,-100.2910771
3054302,CLÍNICA ANÁHUAC,CLINICA LOS ANGELES SA DE CV,622111,Hospitales generales del sector privado,11 a 30 personas,San Nicolás de los Garza                                                                                      ,25.73614806,-100.3063933
3042227,CLINICA BUROCRATAS,MUNICIPIO ,622112,Hospitales generales del sector público,11 a 30 personas,Monterrey                                                                                                     ,25.6337402,-100.2966073
6234934,CLINICA CUAHTEMOC Y FAMOSA,CLINICA CUAUHTEMOC Y FAMOSA SA DE CV,622111,Hospitales generales del sector privado,101 a 250 personas,Monterrey                                                                                                     ,25.69911061,-100.3118313
2934879,CLINICA DE ATENCION INTEGRAL TIERRA Y LIBERTAD,GOBIERNO ,622112,Hospitales generales del sector público,51 a 100 personas,Monterrey                                                                                                     ,25.74142962,-100.3420899
3033620,CLINICA DE GINECOLOGIA DEL IMSS,HOSPITAL DE GINECOBSTETRICIA UMAI NÚMERO 23 ,622112,Hospitales generales del sector público,251 y más personas,Monterrey                                                                                                     ,25.66936205,-100.2973382
2923819,CLINICA DE NIÑOS PATRICIA,,622311,Hospitales del sector privado de otras especialidades médicas,0 a 5 personas,Monterrey                                                                                                     ,25.67902467,-100.3032282
3019589,CLINICA DEL SEGURO SOCIAL NO 14,INSTITUTO MEXICANO DEL SEGURO SOCIAL ,622112,Hospitales generales del sector público,51 a 100 personas,Cadereyta Jiménez                                                                                             ,25.59260446,-100.0110004
9030461,CLINICA GINECOLOGICA ALFA,ALFA MEDIC SA DE CV,622311,Hospitales del sector privado de otras especialidades médicas,31 a 50 personas,Guadalupe                                                                                                     ,25.67866461,-100.2614277
6269787,CLÍNICA HOSPITAL,CLINICA HOSPITAL SNTE SECC.50 ,622111,Hospitales generales del sector privado,51 a 100 personas,Monterrey                                                                                                     ,25.70962206,-100.3476778
2971190,CLINICA LASER OBISPADO,,622111,Hospitales generales del sector privado,6 a 10 personas,Monterrey                                                                                                     ,25.674098,-100.3489054
3005716,CLINICA MARIA LUISA SA DE CV,CLINICA MARIA LUISA SA DE CV,622111,Hospitales generales del sector privado,51 a 100 personas,Ciudad Santa Catarina                                                                                         ,25.68695724,-100.4474953
2932103,CLINICA MATERNIDAD LOS ANGELES,CLINICA MATERNIDAD LOS ANGELES SA DE CV,622111,Hospitales generales del sector privado,6 a 10 personas,Guadalupe                                                                                                     ,25.66219671,-100.1905175
3033134,CLINICA MATERNO INFANTIL CONCEPCION,,622111,Hospitales generales del sector privado,6 a 10 personas,China                                                                                                         ,25.70809204,-99.23382008
2935876,CLINICA MEDICA MUNICIPAL,SECTOR PUBLICO GOBIERNO MUNICIPAL ,622112,Hospitales generales del sector público,51 a 100 personas,Guadalupe                                                                                                     ,25.67952809,-100.2466531
7300165,CLINICA MUNICIPAL MILLER,AYUNTAMIENTO DEL MUNICIPIO DE GARCIA ,622112,Hospitales generales del sector público,11 a 30 personas,García                                                                                                        ,25.79878732,-100.604961
2940549,CLÍNICA MUNICIPAL SALINAS VICTORIA,GOBIERNO ,622112,Hospitales generales del sector público,6 a 10 personas,Salinas Victoria                                                                                              ,25.9589619,-100.2919536
2994221,CLINICA ROMA,CENTRO DE ESPECIALIDADES MEDICAS ROMA SA DE CV,622111,Hospitales generales del sector privado,11 a 30 personas,Monterrey                                                                                                     ,25.65734052,-100.2951043
2997864,CLINICA SAN ANDRES,,622111,Hospitales generales del sector privado,31 a 50 personas,Cadereyta Jiménez                                                                                             ,25.59118313,-100.0075972
2936921,CLINICA UNIVERSITARIA SAN RAFAEL,CLÍNICA UNIVERSITARIA ,622312,Hospitales del sector público de otras especialidades médicas,11 a 30 personas,Guadalupe                                                                                                     ,25.6935552,-100.2202808
2937044,CLINICA UNIVERSITARIA VICENTE GUERRERO,UNIVERSIDAD AUTÓNOMA DE NUEVO LEÓN ,622112,Hospitales generales del sector público,31 a 50 personas,Guadalupe                                                                                                     ,25.68981579,-100.2261697
3023046,CLINICA VALLE,,622111,Hospitales generales del sector privado,11 a 30 personas,Cadereyta Jiménez                                                                                             ,25.5919934,-99.99811896
7636102,CLINICA VALLE EBRON,,622111,Hospitales generales del sector privado,6 a 10 personas,Monterrey                                                                                                     ,25.7451712,-100.3585204
2964424,CLINICA VE  +  CALIDAD A  LA  VISTA,VE + CALIDAD A LA VISTA SA DE CV,622111,Hospitales generales del sector privado,11 a 30 personas,Monterrey                                                                                                     ,25.69394348,-100.3445587
2916148,CLINICA Y MATERNIDAD LA PURISIMA,,622311,Hospitales del sector privado de otras especialidades médicas,11 a 30 personas,Monterrey                                                                                                     ,25.67051951,-100.3268983
2966572,CLINICA Y MATERNIDAD NUEVO NACIMIMIENTO,CLINICA Y MATERNIDAD NUEVO NACIMIENTO SA DE CV,622111,Hospitales generales del sector privado,31 a 50 personas,Monterrey                                                                                                     ,25.70633618,-100.3204512
3023003,CLINICA Y MATERNIDAD VIRGINIA,CLINICA Y MATERNIDAD VIRGINIA SA DE CV,622311,Hospitales del sector privado de otras especialidades médicas,11 a 30 personas,Cadereyta Jiménez                                                                                             ,25.59390525,-100.001017
8971741,CLINICAS DEL AZUCAR,,622111,Hospitales generales del sector privado,11 a 30 personas,Ciudad General Escobedo                                                                                       ,25.78704711,-100.3203262
2982244,CLUB CERRO DE LA SILLA DEL ADULTO MAYOR,CLUB CERRO DE LA SILLA DEL ADULTO MAYOR ,624122,Centros del sector público dedicados a la atención y cuidado diurno de ancianos y discapacitados,0 a 5 personas,Guadalupe                                                                                                     ,25.66418215,-100.2310487
9134217,CLUB DEL ADULTO MAYOR SAN DIEGO,DIF ,624122,Centros del sector público dedicados a la atención y cuidado diurno de ancianos y discapacitados,0 a 5 personas,Guadalupe                                                                                                     ,25.68123521,-100.2342816
3036541,CMFEQ LINARES ISSTE,ISSTE ,622112,Hospitales generales del sector público,51 a 100 personas,Linares                                                                                                       ,24.86086177,-99.55256846
9300010,CONEXION MEDICA PROCEDIMIKENTOS AMBULATORIOS,CONEXION MEDICA ,622111,Hospitales generales del sector privado,0 a 5 personas,Monterrey                                                                                                     ,25.67277731,-100.3417039
2920707,CONJUNTO HABITACIONAL CLUB DE LEONES,CLUB DE LEONES AC,623311,Asilos y otras residencias del sector privado para el cuidado de ancianos,0 a 5 personas,Guadalupe                                                                                                     ,25.66143302,-100.2058717
6217202,CONSULTORIO BEST,FUNDACION BEST AC,622111,Hospitales generales del sector privado,0 a 5 personas,Monterrey                                                                                                     ,25.7839434,-100.4070901
2971147,CONSULTORIO CIRUGIA PLASTICA,,622311,Hospitales del sector privado de otras especialidades médicas,6 a 10 personas,Monterrey                                                                                                     ,25.67521426,-100.3504046
8997083,CONSULTORIO DE GINECOLOGIA,,622311,Hospitales del sector privado de otras especialidades médicas,0 a 5 personas,Monterrey                                                                                                     ,25.66939253,-100.3409955
8997080,CONSULTORIO DE GINECOLOGIA Y OBSTETRICIA,,622311,Hospitales del sector privado de otras especialidades médicas,0 a 5 personas,Monterrey                                                                                                     ,25.66939253,-100.3409955
8997082,CONSULTORIO DE MEDICINA MATERNO FETAL,,622311,Hospitales del sector privado de otras especialidades médicas,0 a 5 personas,Monterrey                                                                                                     ,25.66939253,-100.3409955
2917114,CONSULTORIO DE PEDIATRIA,,622311,Hospitales del sector privado de otras especialidades médicas,0 a 5 personas,Monterrey                                                                                                     ,25.67817478,-100.3201819
8997453,CONSULTORIO DR. LUIS G. VILLAREAL BACCO,,622311,Hospitales del sector privado de otras especialidades médicas,0 a 5 personas,San Pedro Garza García                                                                                        ,25.64644006,-100.322049
8971681,CONSULTORIO FARMACIAS SIMILARES,CONSULTORIO FARMACIAS SIMILARES FUNDACION BEST ,622111,Hospitales generales del sector privado,0 a 5 personas,Ciudad General Escobedo                                                                                       ,25.77718774,-100.3321137
8391015,CONSULTORIO MEDICO,,622311,Hospitales del sector privado de otras especialidades médicas,0 a 5 personas,Monterrey                                                                                                     ,25.68463608,-100.3559424
8997079,CONSULTORIO MEDICO,,622311,Hospitales del sector privado de otras especialidades médicas,0 a 5 personas,Monterrey                                                                                                     ,25.66939253,-100.3409955
8391458,CONSULTORIO MEDICO,,622111,Hospitales generales del sector privado,0 a 5 personas,Monterrey                                                                                                     ,25.68448666,-100.3561605
8391012,CONSULTORIO MEDICO,,622311,Hospitales del sector privado de otras especialidades médicas,0 a 5 personas,Monterrey                                                                                                     ,25.68463608,-100.3559424
8504812,CONSULTORIO MEDICO,,622311,Hospitales del sector privado de otras especialidades médicas,0 a 5 personas,Monterrey                                                                                                     ,25.68463608,-100.3559424
8997177,CONSULTORIO MEDICO,,622311,Hospitales del sector privado de otras especialidades médicas,0 a 5 personas,San Pedro Garza García                                                                                        ,25.64574523,-100.3327567
8504814,CONSULTORIO MEDICO,,622311,Hospitales del sector privado de otras especialidades médicas,0 a 5 personas,Monterrey                                                                                                     ,25.68463608,-100.3559424
8695960,CONSULTORIO MEDICO,,622111,Hospitales generales del sector privado,0 a 5 personas,Monterrey                                                                                                     ,25.67048293,-100.3407339
8391018,CONSULTORIO MEDICO 1032,,622311,Hospitales del sector privado de otras especialidades médicas,0 a 5 personas,Monterrey                                                                                                     ,25.68463608,-100.3559424
8391016,CONSULTORIO MEDICO 1129,,622311,Hospitales del sector privado de otras especialidades médicas,0 a 5 personas,Monterrey                                                                                                     ,25.68463608,-100.3559424
8391402,CONSULTORIO MEDICO DE GINECOLOGIA Y OBSTETRICIA,,622311,Hospitales del sector privado de otras especialidades médicas,0 a 5 personas,Monterrey                                                                                                     ,25.68448666,-100.3561605
8410710,CONSULTORIO MEDICO DE TRAUMATOLOGIA Y ORTOPEDIA SIN NOMBRE,,622111,Hospitales generales del sector privado,0 a 5 personas,Monterrey                                                                                                     ,25.58901672,-100.2584916
8997403,CONSULTORIO MEDICO DR GERARDO CASTILLO,,622311,Hospitales del sector privado de otras especialidades médicas,0 a 5 personas,San Pedro Garza García                                                                                        ,25.64644006,-100.322049
8997404,CONSULTORIO MEDICO DRA. CELIA NAVEJAR,,622311,Hospitales del sector privado de otras especialidades médicas,0 a 5 personas,San Pedro Garza García                                                                                        ,25.64644006,-100.322049
2957365,CONSULTORIO MEDICO FAMILIAR DIF,MUNICIPIO DE SANTA CATARINA ,622112,Hospitales generales del sector público,6 a 10 personas,Ciudad Santa Catarina                                                                                         ,25.68538518,-100.421078
8917596,CONSULTORIO MÉDICO GINECOLOGIA,,622311,Hospitales del sector privado de otras especialidades médicas,0 a 5 personas,Monterrey                                                                                                     ,25.67771459,-100.3257779
8391351,CONSULTORIO MEDICO SIN NOMBRE,,622311,Hospitales del sector privado de otras especialidades médicas,0 a 5 personas,Monterrey                                                                                                     ,25.68448666,-100.3561605
8391349,CONSULTORIO MEDICO SIN NOMBRE,,622311,Hospitales del sector privado de otras especialidades médicas,0 a 5 personas,Monterrey                                                                                                     ,25.68448666,-100.3561605
8960505,CONSULTORIO MEDICO SIN NOMBRE,,622111,Hospitales generales del sector privado,0 a 5 personas,Monterrey                                                                                                     ,25.67728452,-100.2996053
8805554,CONSULTORIO MEDICO SIN NOMBRE,,622111,Hospitales generales del sector privado,0 a 5 personas,Monterrey                                                                                                     ,25.67475758,-100.3372855
6366683,CONTROL DE CLINICAS SC,CONTROL DE CLINICAS SC,622111,Hospitales generales del sector privado,51 a 100 personas,Monterrey                                                                                                     ,25.70060915,-100.301258
2960125,COORPORACION MEDICA,,622111,Hospitales generales del sector privado,11 a 30 personas,Monterrey                                                                                                     ,25.7578278,-100.3681045
8779091,CREAN CASA DE REPOSO,,623311,Asilos y otras residencias del sector privado para el cuidado de ancianos,0 a 5 personas,Monterrey                                                                                                     ,25.6566658,-100.3050097
2926975,CRUZ ROJA MEXICANA,CRUZ ROJA MEXICANA ,622112,Hospitales generales del sector público,51 a 100 personas,Monterrey                                                                                                     ,25.69859541,-100.3165931
8753270,CRUZ VERDE,PATRONATO CRUZ VERDE MONTERREY ,622112,Hospitales generales del sector público,0 a 5 personas,Monterrey                                                                                                     ,25.71794602,-100.3514917
2923750,CRUZ VERDE,MUNICIPIO DE GUADALUPE ,622112,Hospitales generales del sector público,6 a 10 personas,Guadalupe                                                                                                     ,25.7159328,-100.19199
3022549,CSU LAZARO CARDENAS,SERVICIOS DE SALUD DE NUEVO LEÓN ,622112,Hospitales generales del sector público,6 a 10 personas,Cadereyta Jiménez                                                                                             ,25.59696999,-99.98410401
7962309,CUNA DE REPOSO SANTA MARIA,CASA DE REPOSO NSANTA MARIA LA MAS GRANDE AC,623311,Asilos y otras residencias del sector privado para el cuidado de ancianos,0 a 5 personas,Monterrey                                                                                                     ,25.67746796,-100.3418754
8504935,DEDICADO2 CUIDADO AL ADULTO MAYOR,DEDICA2 SA DE CV,623311,Asilos y otras residencias del sector privado para el cuidado de ancianos,6 a 10 personas,Monterrey                                                                                                     ,25.69966022,-100.3592387
3020335,DIRECCION DE SALUD PUBLICA DE SAN NICOLAS DE LOS GARZA,DIRECCIÓN DE SALUD PÚBLICA MUNICIPIO SAN NICOLAS DE LOS GARZA ,622312,Hospitales del sector público de otras especialidades médicas,51 a 100 personas,San Nicolás de los Garza                                                                                      ,25.76568917,-100.2888091
6763456,DOC CUMBRES,HOSPITAL Y CLINICA OCA SA DE CV,622111,Hospitales generales del sector privado,11 a 30 personas,Monterrey                                                                                                     ,25.71101454,-100.3764849
6373128,DOCTORS HOSPITAL,HOSPITAL Y CLINICA OCA SA DE CV,622111,Hospitales generales del sector privado,251 y más personas,Monterrey                                                                                                     ,25.68452425,-100.3561053
6699554,DORMIR Y VIVIR,DORMIR Y VIVIR SA DE CV,622311,Hospitales del sector privado de otras especialidades médicas,11 a 30 personas,San Pedro Garza García                                                                                        ,25.66184203,-100.3677919
8997454,DR. GONZALO GONZALEZ ZAMORA,,622311,Hospitales del sector privado de otras especialidades médicas,0 a 5 personas,San Pedro Garza García                                                                                        ,25.64644006,-100.322049
8533152,DR. LEONEL GARCIA MENDOZA,,622111,Hospitales generales del sector privado,0 a 5 personas,Monterrey                                                                                                     ,25.6723109,-100.3471721
8795601,DRA ALEJANDRA GONZALEZ,,622311,Hospitales del sector privado de otras especialidades médicas,0 a 5 personas,Monterrey                                                                                                     ,25.66814265,-100.3502681
8997140,DRA RUT VALNETINA WADE ISIDRO,,622311,Hospitales del sector privado de otras especialidades médicas,0 a 5 personas,Monterrey                                                                                                     ,25.67037088,-100.3401555
8261083,EDIFICIO DEL ADULTO MAYOR,PRESIDENCIA MUNICIPAL DE DOCTOR ARROYO ,624122,Centros del sector público dedicados a la atención y cuidado diurno de ancianos y discapacitados,6 a 10 personas,Doctor Arroyo                                                                                                 ,23.66446743,-100.1846063
8368972,EMERGENCIA MEDICA PROFESIONAL,EMERGENCIA MEDICA PROFESIONAL ,622112,Hospitales generales del sector público,51 a 100 personas,San Pedro Garza García                                                                                        ,25.66314869,-100.3705507
7873036,ESPECIALIDADES PEDIATRICAS,,622111,Hospitales generales del sector privado,0 a 5 personas,San Pedro Garza García                                                                                        ,25.64576256,-100.3550033
8533243,ESTACIONAMIENTO,ESTACIONAMIENTO DE CONSULTORIO MEDICO Y QUIRURJICO SA DE CV,622111,Hospitales generales del sector privado,0 a 5 personas,Guadalupe                                                                                                     ,25.65341656,-100.195738
8795417,ESTACIONAMIENTO,CENTRO MEDICO QUIRURGICO SANTA MARIA SA DE CV,622111,Hospitales generales del sector privado,0 a 5 personas,Guadalupe                                                                                                     ,25.65379121,-100.195075
7703477,ESTACIONAMIENTO CENTRO MEDICO Y QUIRURJICO SAN BERNABE,,622111,Hospitales generales del sector privado,0 a 5 personas,Monterrey                                                                                                     ,25.7571257,-100.3682786
9239506,ESTACIONAMIENTO HOSPITAL OCA,HOSPITAL Y CLINICA OCA SA DE CV,622111,Hospitales generales del sector privado,0 a 5 personas,Monterrey                                                                                                     ,25.68207603,-100.3198536
6364824,ESTACIONAMIENTO OCA HOSPITAL,HOSPITAL Y CLINICA OCA SA DE CV,622111,Hospitales generales del sector privado,6 a 10 personas,Monterrey                                                                                                     ,25.68237214,-100.3182417
8246114,ESTANCIA CAMPESTRE LA HACIENDA,,623311,Asilos y otras residencias del sector privado para el cuidado de ancianos,6 a 10 personas,Santiago                                                                                                      ,25.4979678,-100.1771956
8437334,ESTANCIA DE ADULTO MAYOR,ESTANCIA DE ADULTO MAYOR AC,624121,Centros del sector privado dedicados a la atención y cuidado diurno de ancianos y discapacitados,6 a 10 personas,Monterrey                                                                                                     ,25.68237951,-100.340712
9159990,ESTANCIA DE APOYO Y CONVIVENCIA A LA TERCERA EDAD,ESTANCIA DE APIYO Y CONVIVENCIA A LA TERCERA EDAD ,622111,Hospitales generales del sector privado,0 a 5 personas,Monterrey                                                                                                     ,25.67353749,-100.3042152
2966565,ESTANCIA DE VERO,ESTANCIA DE VERO AC,623311,Asilos y otras residencias del sector privado para el cuidado de ancianos,6 a 10 personas,Monterrey                                                                                                     ,25.7072643,-100.3192648
8626927,ESTANCIA ESPECIALIZADA,ESTANCIA ESPECIALIZADA ,623311,Asilos y otras residencias del sector privado para el cuidado de ancianos,6 a 10 personas,Monterrey                                                                                                     ,25.68635549,-100.3489333
2938282,ESTANCIA GERIATRICA EXPERIENCIA DE AMOR,,623311,Asilos y otras residencias del sector privado para el cuidado de ancianos,6 a 10 personas,Monterrey                                                                                                     ,25.74260991,-100.3497334
7704245,ESTANCIA GERIATRICA FLORIDA,,623311,Asilos y otras residencias del sector privado para el cuidado de ancianos,0 a 5 personas,Monterrey                                                                                                     ,25.7414944,-100.3754789
2963943,ESTANCIA GERIATRICA LA DIVINA PROVIDENCIA,ESTANCIA GERIATRICA LA DIVINA PROVIDENCIA AC,623311,Asilos y otras residencias del sector privado para el cuidado de ancianos,11 a 30 personas,Monterrey                                                                                                     ,25.70208664,-100.3418059
8753323,ESTANCIA GERIATRICA MARIA DE JESUS,,623311,Asilos y otras residencias del sector privado para el cuidado de ancianos,0 a 5 personas,Monterrey                                                                                                     ,25.70334344,-100.3406369
2963822,ESTANCIA LOS ABUELOS,,623311,Asilos y otras residencias del sector privado para el cuidado de ancianos,0 a 5 personas,Monterrey                                                                                                     ,25.70945985,-100.3591596
8391238,ESTANCIA MARIA DE LOURDES,CENTRO DE ATENCION INTEGRAL AL ANCIANO AC,623311,Asilos y otras residencias del sector privado para el cuidado de ancianos,11 a 30 personas,Monterrey                                                                                                     ,25.69177831,-100.3584743
2964632,ESTANCIA MEDICAL SILVER,,624121,Centros del sector privado dedicados a la atención y cuidado diurno de ancianos y discapacitados,31 a 50 personas,Monterrey                                                                                                     ,25.69655102,-100.3578667
2922867,ESTANCIA PARA EL ADULTO MAYOR,,624121,Centros del sector privado dedicados a la atención y cuidado diurno de ancianos y discapacitados,11 a 30 personas,Monterrey                                                                                                     ,25.69192353,-100.3447629
8279689,ESTANCIA RECIDENCIAL GERIATRICA,ESTANCIA RECIDENCIAL GERIATRICA ,623311,Asilos y otras residencias del sector privado para el cuidado de ancianos,6 a 10 personas,Monterrey                                                                                                     ,25.64865737,-100.2865665
2936184,ESTANCIA VIVIENDO HOY ESTANCIA PARA PERSONAS DE LA TERCERA EDAD,ESTANCIA VIVIENDO HOY ESTANCIA PARA PERSONAS DE LA TERCERA EDAD AC,623311,Asilos y otras residencias del sector privado para el cuidado de ancianos,6 a 10 personas,Guadalupe                                                                                                     ,25.68385576,-100.2375059
8461848,ESTANCIAS GERIATRICA MARIA AUXILIADORA,ESTANCIAS GERIATRICA MARIA AUXILIADORA AC,623311,Asilos y otras residencias del sector privado para el cuidado de ancianos,6 a 10 personas,Monterrey                                                                                                     ,25.68494691,-100.3508174
7636646,FARMACIA DE BARI,,622111,Hospitales generales del sector privado,0 a 5 personas,Monterrey                                                                                                     ,25.74142901,-100.3425335
7299946,FARMACIA SAN ANGEL,,622111,Hospitales generales del sector privado,6 a 10 personas,Parque Industrial Ciudad Mitras                                                                               ,25.7840727,-100.4643484
7564139,FARMACIA SIMILIRES,GRUPO GARDEME SA DE CV,622111,Hospitales generales del sector privado,0 a 5 personas,Monterrey                                                                                                     ,25.77947553,-100.3889906
6372298,FUNDACION SANTOS Y DE LA GARZA EVIA IBP,FUNDACION SANTOS Y DE LA GARZA EVIA IBP,622111,Hospitales generales del sector privado,251 y más personas,San Pedro Garza García                                                                                        ,25.64419137,-100.3332127
2930580,GEMA NUEVO LEON CLINICA,GEMA NUEVO LEON SA DE CV,622311,Hospitales del sector privado de otras especialidades médicas,0 a 5 personas,Ciudad de Allende                                                                                             ,25.28178491,-100.0214095
8997684,GINECOLOGIA Y OBSTETRICIA,,622311,Hospitales del sector privado de otras especialidades médicas,0 a 5 personas,San Pedro Garza García                                                                                        ,25.64644006,-100.322049
8997685,GINECOLOGIA Y OBSTETRICIA,,622311,Hospitales del sector privado de otras especialidades médicas,0 a 5 personas,San Pedro Garza García                                                                                        ,25.64644006,-100.322049
8649080,GINECOLOGO,,622311,Hospitales del sector privado de otras especialidades médicas,0 a 5 personas,Guadalupe                                                                                                     ,25.65674844,-100.2621615
8997565,GINECOLOGO DR RAUL MATA,,622311,Hospitales del sector privado de otras especialidades médicas,0 a 5 personas,San Pedro Garza García                                                                                        ,25.64644006,-100.322049
9310031,GINEQUITO SPA,GINEQUITO SPA ,622311,Hospitales del sector privado de otras especialidades médicas,11 a 30 personas,Monterrey                                                                                                     ,25.67039421,-100.3402791
9297478,GRUPO ANGELES SERVICIOS DE SALUD,GRUPO ANGELS SERVICIOS DE SALUD SA DE CV,622311,Hospitales del sector privado de otras especialidades médicas,11 a 30 personas,San Pedro Garza García                                                                                        ,25.64558422,-100.3208803
8696166,GRUPO OFTALMOLOGICO VISION,,622111,Hospitales generales del sector privado,0 a 5 personas,Monterrey                                                                                                     ,25.67229607,-100.347119
8461623,GUARDERIA DELADULTO MAYOR,GUARDERIA DELADULTO MAYOR ,624122,Centros del sector público dedicados a la atención y cuidado diurno de ancianos y discapacitados,11 a 30 personas,Ciudad Benito Juárez                                                                                          ,25.6427277,-100.1461843
3022719,GUARDERIA EL SUENO DEL ANGEL,GUARDERIA EL SUEÑO DEL ANGEL SC,622311,Hospitales del sector privado de otras especialidades médicas,31 a 50 personas,Monterrey                                                                                                     ,25.70730546,-100.3653132
2928087,GUARDERIA GERANTOLOGICA ROGELIO AYALA CONTEL,DIF NUEVO LEÓN 2003 ,624122,Centros del sector público dedicados a la atención y cuidado diurno de ancianos y discapacitados,11 a 30 personas,Monterrey                                                                                                     ,25.69442552,-100.3263149
9205585,GUARDERIA GERENTOLOGICA JUAN MEZA RODRIGUEZ,SISTEMA PARA EL DESARROYO INTEGRAL DE LA FAMILIA ,624122,Centros del sector público dedicados a la atención y cuidado diurno de ancianos y discapacitados,11 a 30 personas,Guadalupe                                                                                                     ,25.66664122,-100.2137195
3025398,HOGAR BUEN SUCESO ABP,HOGAR BUEN SUCESO ABP ,623311,Asilos y otras residencias del sector privado para el cuidado de ancianos,11 a 30 personas,Monterrey                                                                                                     ,25.67451366,-100.3470077
6372684,HOGAR DE LA MISERICORDIA,HOGAR DE LA MISERICORDIA ABP,623311,Asilos y otras residencias del sector privado para el cuidado de ancianos,11 a 30 personas,Guadalupe                                                                                                     ,25.6707583,-100.2580775
6367116,HOGAR DE LA MISERICORDIA II,HOGAR DE LA MISERICORDIA ABP,623311,Asilos y otras residencias del sector privado para el cuidado de ancianos,31 a 50 personas,San Nicolás de los Garza                                                                                      ,25.73360095,-100.2901076
6372685,HOGAR DE LA MISERICORDIA III,HOGAR DE LA MISERICORDIA ABP,623311,Asilos y otras residencias del sector privado para el cuidado de ancianos,31 a 50 personas,Ciudad Santa Catarina                                                                                         ,25.66113984,-100.4323885
8712253,HOGAR PARA EL ADULTO MAYOR NUESTRA SEÑORA DE LOS ANGELES,HOGAR PARA EL ADULYO MAYOR NUESTRA SEÑORA DE LOS ANGELES AC,623311,Asilos y otras residencias del sector privado para el cuidado de ancianos,0 a 5 personas,San Nicolás de los Garza                                                                                      ,25.74983831,-100.2954724
6810143,HOSPITAL ANGELES,HOSPITAL ANGELES PEDREGAL SA DE CV,622111,Hospitales generales del sector privado,51 a 100 personas,San Pedro Garza García                                                                                        ,25.64540345,-100.3208542
6215259,HOSPITAL CENTRA,PROVEEDORA DE SERVICIOS MEDICOS SA DE CV,622311,Hospitales del sector privado de otras especialidades médicas,11 a 30 personas,Ciudad Benito Juárez                                                                                          ,25.6482034,-100.0993233
9030554,HOSPITAL CENTRA SUCURSAL GUADALUPE,CENTRO DE TRAUMA Y CIRUGIA ESPECIALIZADA SA DE CV,622111,Hospitales generales del sector privado,51 a 100 personas,Guadalupe                                                                                                     ,25.65621396,-100.1824552
6365098,HOSPITAL DE GINECOLOGIA Y OBSTETRICIA SA DE CV,,622311,Hospitales del sector privado de otras especialidades médicas,251 y más personas,Monterrey                                                                                                     ,25.67039541,-100.3402855
6366063,"HOSPITAL DE SAN VICENTE, I.B.P.",HOSPITAL DE SAN VICENTE IBP,622111,Hospitales generales del sector privado,251 y más personas,Monterrey                                                                                                     ,25.67818002,-100.3251761
2915956,HOSPITAL DE TRAUMATOLOGIA Y ORTOPEDIA NUMERO VEINTIUNO,IMSS ,622112,Hospitales generales del sector público,251 y más personas,Monterrey                                                                                                     ,25.67192816,-100.3197213
6485593,HOSPITAL GENERAL CADEREYTA NL PETROLEOS MEXICANO,GOBIERNO DEL ESTADO ,622112,Hospitales generales del sector público,251 y más personas,Cadereyta Jiménez                                                                                             ,25.57527187,-100.0107449
3017333,HOSPITAL GENERAL DE CERRALVO,SERVICIOS DE SALUD DE NUEVO LEÓN ,622112,Hospitales generales del sector público,101 a 250 personas,Ciudad Cerralvo                                                                                               ,26.08400486,-99.60455257
3041341,HOSPITAL GENERAL DE GALEANA,SERVICIOS DE SALUD DE NUEVO LEÓN ,622112,Hospitales generales del sector público,101 a 250 personas,Galeana                                                                                                       ,24.81915353,-100.0729872
6368583,HOSPITAL GENERAL DE LINARES,PATRONATO PROCONSTRUCCIÓN Y MANTENIMIENTO DEL HOSPITAL GENERAL ATANACIO GARZA RÍOS ABP ABP,622111,Hospitales generales del sector privado,51 a 100 personas,Linares                                                                                                       ,24.84906533,-99.57166205
3036658,HOSPITAL GENERAL DE LINARES,SERVICIOS DE SALUD DE NUEVO LEÓN ,622112,Hospitales generales del sector público,101 a 250 personas,Linares                                                                                                       ,24.86124097,-99.54879809
3000982,HOSPITAL GENERAL DE SUBZONA CON MEDICINA FAMILIAR NUMERO 12,INSTITUTO MEXICO DEL SEGURO SOCIAL DE GOBIERNO FEDERAL ,622112,Hospitales generales del sector público,101 a 250 personas,Linares                                                                                                       ,24.86429447,-99.57102875
2936400,HOSPITAL GENERAL DE ZONA  CON MEDICINA FAMILIAR NUMERO 6,GOBIERNO FEDERAL ,622112,Hospitales generales del sector público,251 y más personas,San Nicolás de los Garza                                                                                      ,25.75273341,-100.2982487
2915576,HOSPITAL GENERAL DE ZONA #4,GOBIERNO FEDERAL ,622112,Hospitales generales del sector público,251 y más personas,Guadalupe                                                                                                     ,25.67332385,-100.2613287
3033619,HOSPITAL GENERAL DE ZONA 33,UMAE 33 IMSS ,622112,Hospitales generales del sector público,251 y más personas,Monterrey                                                                                                     ,25.669691,-100.2985557
9313666,HOSPITAL GENERAL DE ZONA NO  67,INSTITUTO DEL SEGURO SOCIAL ,622112,Hospitales generales del sector público,0 a 5 personas,Ciudad Apodaca                                                                                                ,25.79104098,-100.139801
2930485,HOSPITAL GENERAL DE ZONA NUM 17,IMSS ,622112,Hospitales generales del sector público,251 y más personas,Monterrey                                                                                                     ,25.70111362,-100.3368697
3049508,HOSPITAL GENERAL DOCTOR ARROYO NUEVO LEON,SERVICIOS DE SALUD DE NUEVO LEON ,622112,Hospitales generales del sector público,251 y más personas,Doctor Arroyo                                                                                                 ,23.67726284,-100.1886975
3012075,HOSPITAL GENERAL SABINAS HIDALGO,SERVICIO DE SALUD EN NUEVO LEON ,622112,Hospitales generales del sector público,101 a 250 personas,Ciudad Sabinas Hidalgo                                                                                        ,26.49681566,-100.1736899
6368442,HOSPITAL LA CARLOTA,,622111,Hospitales generales del sector privado,251 y más personas,Montemorelos                                                                                                  ,25.19500716,-99.84193529
8778729,HOSPITAL LA MISION,HOSPITAL LA MISION SA DE CV,622111,Hospitales generales del sector privado,6 a 10 personas,Monterrey                                                                                                     ,25.66875646,-100.3503786
6368420,HOSPITAL MARÍA LUISA,CENTRO MÉDICO ML SC,622111,Hospitales generales del sector privado,51 a 100 personas,Monterrey                                                                                                     ,25.65366937,-100.2840261
2979578,HOSPITAL MATERNO INFANTIL,HOSPITAL MATERNO INFANTIL ,622312,Hospitales del sector público de otras especialidades médicas,251 y más personas,Guadalupe                                                                                                     ,25.69517127,-100.2231139
3055028,HOSPITAL METROPOLITANO DOC BERNARDO SEPULVEDA,SECRETARÍA DE SALUD ,622112,Hospitales generales del sector público,251 y más personas,San Nicolás de los Garza                                                                                      ,25.71390971,-100.2737422
2966734,HOSPITAL MILITAR REGIONAL,SECRETARÍA DE LA DEFENSA NACIONAL ,622112,Hospitales generales del sector público,251 y más personas,Monterrey                                                                                                     ,25.72009453,-100.3131359
9311315,HOSPITAL MUGUERZA,HOSPITAL MUGUERZA SA DE CV,622111,Hospitales generales del sector privado,11 a 30 personas,Monterrey                                                                                                     ,25.67266314,-100.3486041
6367806,HOSPITAL ROBLE,ROBLE CENTRO MEDICO SA DE CV,622111,Hospitales generales del sector privado,31 a 50 personas,San Nicolás de los Garza                                                                                      ,25.75805824,-100.2984015
3045328,HOSPITAL RURAL GENERAL DE MONTEMORELOS OSCAR TREVIÑO,SERVICIOS DE SALUD DE NUEVO LEON ,622112,Hospitales generales del sector público,101 a 250 personas,Montemorelos                                                                                                  ,25.18368859,-99.83521061
2930596,HOSPITAL SACRAMENTO,HOSPITAL SACRAMENTO SA DE CV,622111,Hospitales generales del sector privado,31 a 50 personas,Ciudad Apodaca                                                                                                ,25.77792565,-100.2584956
3018129,HOSPITAL SAN FELIPE DE JESUS,HOSPITAL SAN FELIPE DE JESUS SC,622111,Hospitales generales del sector privado,31 a 50 personas,Monterrey                                                                                                     ,25.71345954,-100.3799934
6365532,HOSPITAL SAN JORGE,HOSPITAL Y CENTRO MÉDICO SAN JORGE DE MONTERREY SA DE CV,622111,Hospitales generales del sector privado,101 a 250 personas,Monterrey                                                                                                     ,25.67824195,-100.3248137
6371287,HOSPITAL SAN JOSE,FUNDACION SANTOS Y DE LA GARZA EVIA IBP,622111,Hospitales generales del sector privado,251 y más personas,Monterrey                                                                                                     ,25.66985092,-100.3509305
6216877,HOSPITAL SAN LUCAS,HOSPITAL SAN LUCAS DE MONTERREY SA DE CV,622111,Hospitales generales del sector privado,31 a 50 personas,Monterrey                                                                                                     ,25.66814265,-100.3502681
6216696,HOSPITAL SAN PEDRO,HSP SAN PEDRO HOSPITAL SA DE CV,622111,Hospitales generales del sector privado,31 a 50 personas,San Pedro Garza García                                                                                        ,25.6661961,-100.3685729
6214598,HOSPITAL SIERRA MADRE,HOSPITAL SIERRA MADRE SC,622111,Hospitales generales del sector privado,6 a 10 personas,Monterrey                                                                                                     ,25.67356368,-100.3475722
8684217,HOSPITAL UMI,HOSPITAL UMI ,622111,Hospitales generales del sector privado,31 a 50 personas,San Nicolás de los Garza                                                                                      ,25.71760438,-100.2754315
8997016,HOSPITAL ZAMBRANO HELLION INSTITUTO DE BIENESTAR INTEGRAL,,622111,Hospitales generales del sector privado,11 a 30 personas,San Pedro Garza García                                                                                        ,25.64793827,-100.3339779
8997233,HOSPITAL ZAMBRANO HELLION TECSALUD,,622311,Hospitales del sector privado de otras especialidades médicas,0 a 5 personas,San Pedro Garza García                                                                                        ,25.64574523,-100.3327567
8997232,HOSPITAL ZAMBRANO HELLION TECSALUD,,622311,Hospitales del sector privado de otras especialidades médicas,0 a 5 personas,San Pedro Garza García                                                                                        ,25.64574523,-100.3327567
8466155,HOSPITALES DEL SECTOR PRIVADO DE OTRAS ESPECIALIDADES MÉDICAS,,622311,Hospitales del sector privado de otras especialidades médicas,0 a 5 personas,Monterrey                                                                                                     ,25.71360648,-100.3802196
2990418,HOSPITALES GENERALES DEL SECTOR PRIVADO,,622111,Hospitales generales del sector privado,0 a 5 personas,Monterrey                                                                                                     ,25.66861374,-100.3525539
8279513,HOSPITALES GENERALES DEL SECTOR PRIVADO,,622111,Hospitales generales del sector privado,0 a 5 personas,Monterrey                                                                                                     ,25.6748546,-100.3378998
8279512,HOSPITALES GENERALES DEL SECTOR PRIVADO,,622111,Hospitales generales del sector privado,0 a 5 personas,Monterrey                                                                                                     ,25.6748546,-100.3378998
8778503,HOSPITALES GENERALES DEL SECTOR PRIVADO,,622111,Hospitales generales del sector privado,0 a 5 personas,Monterrey                                                                                                     ,25.66875646,-100.3503786
3051614,I S S S T E INSTITUTO DE SEGURIDAD Y SERVICIO SOCIAL,I S S S T E INSTITUTO DE SEGURIDAD Y SERVICIO SOCIAL ,622112,Hospitales generales del sector público,6 a 10 personas,Galeana                                                                                                       ,24.82436357,-100.0777377
8794923,IDIM EL MATERNITO,IDIMEL MATERNITO SA DE CV,622111,Hospitales generales del sector privado,11 a 30 personas,Guadalupe                                                                                                     ,25.69520069,-100.2243831
9284013,IMIGO,IMIGO ,622311,Hospitales del sector privado de otras especialidades médicas,0 a 5 personas,Monterrey                                                                                                     ,25.66720651,-100.3467168
3010648,IMSS,GOBIERNO ,622112,Hospitales generales del sector público,6 a 10 personas,Ciudad de Villaldama                                                                                          ,26.5042499,-100.4289615
2936401,IMSS   UNIDAD DE MEDICINA FAMILIAR NUMERO 31,GOBIERNO ,622112,Hospitales generales del sector público,251 y más personas,San Nicolás de los Garza                                                                                      ,25.75229008,-100.2984172
3037543,IMSS CENTRO DE SEGURIDAD SOCIAL NUMERO 7,INSTITUTO MEXICANO DEL SEGURO SOCIAL ,622112,Hospitales generales del sector público,11 a 30 personas,Linares                                                                                                       ,24.86358554,-99.570905
2934338,IMSS UNIDAD DE MEDICINA FAMILIAR N0 43,INSTITUTO MEXICANO DEL SEGURO SOCIAL ,622112,Hospitales generales del sector público,101 a 250 personas,Ciudad General Escobedo                                                                                       ,25.77458431,-100.3183309
3025393,INEGGEM,INEGGEM AC,623311,Asilos y otras residencias del sector privado para el cuidado de ancianos,6 a 10 personas,Monterrey                                                                                                     ,25.67801538,-100.3496099
8971332,INMEDIK,CENTRO MEDICO SANTA MARTHA SA DE CV,622111,Hospitales generales del sector privado,0 a 5 personas,Ciudad General Escobedo                                                                                       ,25.83581451,-100.36691
8812666,INMEDIK CENTRO MEDICO,CENTRO MEDICO SANTA MARTHA SA DE CV,622111,Hospitales generales del sector privado,6 a 10 personas,Valle de Lincoln                                                                                              ,25.79066555,-100.4882367
8971215,INMEDI-K CENTRO MEDICO,INMEDIK ,622111,Hospitales generales del sector privado,11 a 30 personas,Mitras Poniente                                                                                               ,25.7742372,-100.4275129
8997294,INSITTUTO DE CIRUGIA ESPECIALIDAD UROLOGIA DR EDUARDO BARRERA JUAREZ,HOSPITAL ZAMBRANO HELLIONTECSALUD SC,622311,Hospitales del sector privado de otras especialidades médicas,0 a 5 personas,San Pedro Garza García                                                                                        ,25.64574523,-100.3327567
8997340,INSTITUTO DE CIRUGIA ESPECIALIDAD UROLOGO DR DANIEL OLVERA POSADAS,HOSPITAL ZAMBRANO HELLIONTECSALUD SC,622311,Hospitales del sector privado de otras especialidades médicas,0 a 5 personas,San Pedro Garza García                                                                                        ,25.64574523,-100.3327567
8997295,INSTITUTO DE CIRUGIA ESPECIALIDAD UROLOGO DR JUAN MIGUEL ESTRADA BUJANOS,HOSPITAL ZAMBRANO HELLIONTECSALUD SC,622311,Hospitales del sector privado de otras especialidades médicas,0 a 5 personas,San Pedro Garza García                                                                                        ,25.64574523,-100.3327567
8997339,INSTITUTO DE CIRUGIA ESPECIALIDAD UROLOGO DR. GERARDO ORTIZ LARA,HOSPITAL ZAMBRANO HELLIONTECSALUD SC,622311,Hospitales del sector privado de otras especialidades médicas,0 a 5 personas,San Pedro Garza García                                                                                        ,25.64574523,-100.3327567
